{"type": "FeatureCollection", "features": [{"type": "Feature", "properties": {"name": "Berești", "county": "Galați"}, "geometry": {"type": "Point", "coordinates": [27.099, 45.858]}}, {"type": "Feature", "properties": {"name": "Segarcea", "county": "Dolj"}, "geometry": {"type": "Point", "coordinates": [23.740456278619586, 44.09401216495757]}}, {"type": "Feature", "properties": {"name": "Milișăuți", "county": "Suceava"}, "geometry": {"type": "Point", "coordinates": [25.991243467697412, 47.786187476283274]}}, {"type": "Feature", "properties": {"name": "Recaș", "county": "Timiș"}, "geometry": {"type": "Point", "coordinates": [21.51000199310619, 45.80249610769402]}}, {"type": "Feature", "properties": {"name": "Băile Tușnad", "county": "Harghita"}, "geometry": {"type": "Point", "coordinates": [25.857966452902645, 46.1477832181031]}}, {"type": "Feature", "properties": {"name": "Borsec", "county": "Harghita"}, "geometry": {"type": "Point", "coordinates": [25.56014920702249, 46.96525016026402]}}, {"type": "Feature", "properties": {"name": "Nucet", "county": "Bihor"}, "geometry": {"type": "Point", "coordinates": [22.424, 46.61]}}, {"type": "Feature", "properties": {"name": "Vașcău", "county": "Bihor"}, "geometry": {"type": "Point", "coordinates": [22.473801006929147, 46.47336058138855]}}, {"type": "Feature", "properties": {"name": "Căzănești", "county": "Ialomița"}, "geometry": {"type": "Point", "coordinates": [26.636, 44.569]}}, {"type": "Feature", "properties": {"name": "Budești", "county": "Călărași"}, "geometry": {"type": "Point", "coordinates": [26.698, 44.281]}}, {"type": "Feature", "properties": {"name": "Săcueni", "county": "Bihor"}, "geometry": {"type": "Point", "coordinates": [22.083, 47.35]}}, {"type": "Feature", "properties": {"name": "Sângeorgiu de Pădure", "county": "Mureș"}, "geometry": {"type": "Point", "coordinates": [24.84117592255354, 46.43033562548878]}}, {"type": "Feature", "properties": {"name": "Sântana", "county": "Arad"}, "geometry": {"type": "Point", "coordinates": [21.51026580874487, 46.34433309314504]}}, {"type": "Feature", "properties": {"name": "Salonta", "county": "Bihor"}, "geometry": {"type": "Point", "coordinates": [21.66253722537725, 46.80251526745327]}}, {"type": "Feature", "properties": {"name": "Murfatlar", "county": "Constanța"}, "geometry": {"type": "Point", "coordinates": [28.409471612797365, 44.17287770652873]}}, {"type": "Feature", "properties": {"name": "Murgeni", "county": "Vaslui"}, "geometry": {"type": "Point", "coordinates": [28.020743397338197, 46.20497728334019]}}, {"type": "Feature", "properties": {"name": "Nădlac", "county": "Arad"}, "geometry": {"type": "Point", "coordinates": [20.747111659588608, 46.16629463299684]}}, {"type": "Feature", "properties": {"name": "Negru Vodă", "county": "Constanța"}, "geometry": {"type": "Point", "coordinates": [28.21715380883413, 43.81583036857664]}}, {"type": "Feature", "properties": {"name": "Baia de Arieș", "county": "Alba"}, "geometry": {"type": "Point", "coordinates": [23.281702370087984, 46.38055658726598]}}, {"type": "Feature", "properties": {"name": "Valea lui Mihai", "county": "Bihor"}, "geometry": {"type": "Point", "coordinates": [22.13032849818892, 47.5206911661913]}}, {"type": "Feature", "properties": {"name": "Săveni", "county": "Botoșani"}, "geometry": {"type": "Point", "coordinates": [27.24652967400922, 47.39948258017641]}}, {"type": "Feature", "properties": {"name": "Scornicești", "county": "Olt"}, "geometry": {"type": "Point", "coordinates": [24.542858824406785, 44.600128558407185]}}, {"type": "Feature", "properties": {"name": "Sebiș", "county": "Arad"}, "geometry": {"type": "Point", "coordinates": [22.131, 46.368]}}, {"type": "Feature", "properties": {"name": "Moldova Nouă", "county": "Caraș-Severin"}, "geometry": {"type": "Point", "coordinates": [21.672455227476167, 44.738392675518725]}}, {"type": "Feature", "properties": {"name": "Miercurea Nirajului", "county": "Mureș"}, "geometry": {"type": "Point", "coordinates": [24.806889568059344, 46.53615446437981]}}, {"type": "Feature", "properties": {"name": "Mihailești", "county": "Giurgiu"}, "geometry": {"type": "Point", "coordinates": [25.92163327680022, 44.318404818160786]}}, {"type": "Feature", "properties": {"name": "Băicoi", "county": "Prahova"}, "geometry": {"type": "Point", "coordinates": [25.849386257342278, 45.03520258168249]}}, {"type": "Feature", "properties": {"name": "Negrești-Oaș", "county": "Satu Mare"}, "geometry": {"type": "Point", "coordinates": [23.42474223474828, 47.872205116612335]}}, {"type": "Feature", "properties": {"name": "Pătârlagele", "county": "Buzău"}, "geometry": {"type": "Point", "coordinates": [26.359823600293538, 45.32053513323512]}}, {"type": "Feature", "properties": {"name": "Piatra-Olt", "county": "Olt"}, "geometry": {"type": "Point", "coordinates": [24.256510743596873, 44.36723232256792]}}, {"type": "Feature", "properties": {"name": "Novaci", "county": "Gorj"}, "geometry": {"type": "Point", "coordinates": [23.667, 45.183]}}, {"type": "Feature", "properties": {"name": "Ocna Sibiului", "county": "Sibiu"}, "geometry": {"type": "Point", "coordinates": [24.04455020040699, 45.88029674648134]}}, {"type": "Feature", "properties": {"name": "Lehliu Gară", "county": "Călărași"}, "geometry": {"type": "Point", "coordinates": [26.854470272298506, 44.44092191774081]}}, {"type": "Feature", "properties": {"name": "Comarnic", "county": "Prahova"}, "geometry": {"type": "Point", "coordinates": [25.63586976687134, 45.238049376764174]}}, {"type": "Feature", "properties": {"name": "Târgu Lăpuș", "county": "Maramureș"}, "geometry": {"type": "Point", "coordinates": [23.862938542143915, 47.45347950834445]}}, {"type": "Feature", "properties": {"name": "Cajvana", "county": "Suceava"}, "geometry": {"type": "Point", "coordinates": [25.965327934498696, 47.70146073921621]}}, {"type": "Feature", "properties": {"name": "Rovinari", "county": "Gorj"}, "geometry": {"type": "Point", "coordinates": [23.17851555004727, 44.931222909994986]}}, {"type": "Feature", "properties": {"name": "Comănești", "county": "Bacău"}, "geometry": {"type": "Point", "coordinates": [26.438, 46.427]}}, {"type": "Feature", "properties": {"name": "Topoloveni", "county": "Argeș"}, "geometry": {"type": "Point", "coordinates": [25.086215423505784, 44.80568882018806]}}, {"type": "Feature", "properties": {"name": "Carei", "county": "Satu Mare"}, "geometry": {"type": "Point", "coordinates": [22.46578203358554, 47.68546905022338]}}, {"type": "Feature", "properties": {"name": "Bolintin Vale", "county": "Giurgiu"}, "geometry": {"type": "Point", "coordinates": [25.756312201153055, 44.44733771984837]}}, {"type": "Feature", "properties": {"name": "Dolhasca", "county": "Suceava"}, "geometry": {"type": "Point", "coordinates": [26.60993394033727, 47.42590484681633]}}, {"type": "Feature", "properties": {"name": "Dorohoi", "county": "Botoșani"}, "geometry": {"type": "Point", "coordinates": [26.399361764431738, 47.9526856790373]}}, {"type": "Feature", "properties": {"name": "Drăgănești Olt", "county": "Olt"}, "geometry": {"type": "Point", "coordinates": [24.523617558426206, 44.16918190782435]}}, {"type": "Feature", "properties": {"name": "Drăgășani", "county": "Vâlcea"}, "geometry": {"type": "Point", "coordinates": [24.259, 44.66]}}, {"type": "Feature", "properties": {"name": "Dumbrăveni", "county": "Sibiu"}, "geometry": {"type": "Point", "coordinates": [24.569, 46.227]}}, {"type": "Feature", "properties": {"name": "Marghita", "county": "Bihor"}, "geometry": {"type": "Point", "coordinates": [22.341982226179418, 47.34738905841855]}}, {"type": "Feature", "properties": {"name": "Baia de Aramă", "county": "Mehedinți"}, "geometry": {"type": "Point", "coordinates": [22.806288278095415, 44.99896066345073]}}, {"type": "Feature", "properties": {"name": "Măcin", "county": "Tulcea"}, "geometry": {"type": "Point", "coordinates": [28.136800904292542, 45.247114397739]}}, {"type": "Feature", "properties": {"name": "Vânju Mare", "county": "Mehedinți"}, "geometry": {"type": "Point", "coordinates": [22.86928726320764, 44.42540131884656]}}, {"type": "Feature", "properties": {"name": "Vișeu de Sus", "county": "Maramureș"}, "geometry": {"type": "Point", "coordinates": [24.425922419439093, 47.71397786264949]}}, {"type": "Feature", "properties": {"name": "Hârlău", "county": "Iași"}, "geometry": {"type": "Point", "coordinates": [26.903150481648314, 47.4269691990898]}}, {"type": "Feature", "properties": {"name": "Țăndărei", "county": "Ialomița"}, "geometry": {"type": "Point", "coordinates": [27.650475951849767, 44.64463921086609]}}, {"type": "Feature", "properties": {"name": "Frăsin", "county": "Suceava"}, "geometry": {"type": "Point", "coordinates": [25.796825825536285, 47.52839744720921]}}, {"type": "Feature", "properties": {"name": "Fundulea", "county": "Călărași"}, "geometry": {"type": "Point", "coordinates": [26.51482857425333, 44.46247252571649]}}, {"type": "Feature", "properties": {"name": "Gătaia", "county": "Timiș"}, "geometry": {"type": "Point", "coordinates": [21.42870103600849, 45.42653644633779]}}, {"type": "Feature", "properties": {"name": "Geoagiu", "county": "Hunedoara"}, "geometry": {"type": "Point", "coordinates": [23.19973814726334, 45.91984240927335]}}, {"type": "Feature", "properties": {"name": "Făurei", "county": "Brăila"}, "geometry": {"type": "Point", "coordinates": [27.268, 45.085]}}, {"type": "Feature", "properties": {"name": "Fierbinți Târg", "county": "Ialomița"}, "geometry": {"type": "Point", "coordinates": [26.380651963532422, 44.682027413862016]}}, {"type": "Feature", "properties": {"name": "Filiași", "county": "Dolj"}, "geometry": {"type": "Point", "coordinates": [23.514, 44.524]}}, {"type": "Feature", "properties": {"name": "Bumbești -Jiu", "county": "Gorj"}, "geometry": {"type": "Point", "coordinates": [23.381939063132982, 45.17861565215346]}}, {"type": "Feature", "properties": {"name": "Bucecea", "county": "Botoșani"}, "geometry": {"type": "Point", "coordinates": [26.43406800639412, 47.77375878142122]}}, {"type": "Feature", "properties": {"name": "Stei", "county": "Bihor"}, "geometry": {"type": "Point", "coordinates": [22.463, 46.522]}}, {"type": "Feature", "properties": {"name": "Ștefănești", "county": "Argeș"}, "geometry": {"type": "Point", "coordinates": [24.235713806633864, 44.60908567307098]}}, {"type": "Feature", "properties": {"name": "Sulina", "county": "Tulcea"}, "geometry": {"type": "Point", "coordinates": [29.650498182488228, 45.155846656890176]}}, {"type": "Feature", "properties": {"name": "Anina", "county": "Caraș-Severin"}, "geometry": {"type": "Point", "coordinates": [21.850534453587862, 45.08973859918382]}}, {"type": "Feature", "properties": {"name": "Tășnad", "county": "Satu Mare"}, "geometry": {"type": "Point", "coordinates": [22.584054994229106, 47.47863257648205]}}, {"type": "Feature", "properties": {"name": "Băile Herculane", "county": "Caraș-Severin"}, "geometry": {"type": "Point", "coordinates": [22.425335198247087, 44.886454418482195]}}, {"type": "Feature", "properties": {"name": "Băile Govora", "county": "Vâlcea"}, "geometry": {"type": "Point", "coordinates": [24.18, 45.08]}}, {"type": "Feature", "properties": {"name": "Ungheni", "county": "Mureș"}, "geometry": {"type": "Point", "coordinates": [24.256, 46.525]}}, {"type": "Feature", "properties": {"name": "Uricani", "county": "Hunedoara"}, "geometry": {"type": "Point", "coordinates": [23.16, 45.359]}}, {"type": "Feature", "properties": {"name": "Vălenii de Munte", "county": "Prahova"}, "geometry": {"type": "Point", "coordinates": [26.037331526605843, 45.187433363615845]}}, {"type": "Feature", "properties": {"name": "Săliștea de Sus", "county": "Maramureș"}, "geometry": {"type": "Point", "coordinates": [24.351750533503562, 47.65992660474125]}}, {"type": "Feature", "properties": {"name": "Dragomirești", "county": "Maramureș"}, "geometry": {"type": "Point", "coordinates": [24.319, 47.666]}}, {"type": "Feature", "properties": {"name": "Sebeș", "county": "Alba"}, "geometry": {"type": "Point", "coordinates": [23.57, 45.959]}}, {"type": "Feature", "properties": {"name": "Baia Sprie", "county": "Maramureș"}, "geometry": {"type": "Point", "coordinates": [23.70345174721548, 47.66291400566272]}}, {"type": "Feature", "properties": {"name": "Băilești", "county": "Dolj"}, "geometry": {"type": "Point", "coordinates": [23.34442566344909, 44.020576795785146]}}, {"type": "Feature", "properties": {"name": "Bălan", "county": "Harghita"}, "geometry": {"type": "Point", "coordinates": [25.806, 46.639]}}, {"type": "Feature", "properties": {"name": "Potcoava", "county": "Olt"}, "geometry": {"type": "Point", "coordinates": [24.63000504073451, 44.47444960658831]}}, {"type": "Feature", "properties": {"name": "Călimănești", "county": "Vâlcea"}, "geometry": {"type": "Point", "coordinates": [24.339, 45.236]}}, {"type": "Feature", "properties": {"name": "Râșnov", "county": "Brașov"}, "geometry": {"type": "Point", "coordinates": [25.462389688916886, 45.59079728981103]}}, {"type": "Feature", "properties": {"name": "Săcele", "county": "Brașov"}, "geometry": {"type": "Point", "coordinates": [25.715, 45.62]}}, {"type": "Feature", "properties": {"name": "Victoria", "county": "Brașov"}, "geometry": {"type": "Point", "coordinates": [24.713, 45.739]}}, {"type": "Feature", "properties": {"name": "Baraolt", "county": "Covasna"}, "geometry": {"type": "Point", "coordinates": [25.60209065791743, 46.07547076012658]}}, {"type": "Feature", "properties": {"name": "Călan", "county": "Hunedoara"}, "geometry": {"type": "Point", "coordinates": [22.989385589941058, 45.73370622583541]}}, {"type": "Feature", "properties": {"name": "Făgăraș", "county": "Brașov"}, "geometry": {"type": "Point", "coordinates": [24.97192667888407, 45.84069140337573]}}, {"type": "Feature", "properties": {"name": "Târgu Secuiesc", "county": "Covasna"}, "geometry": {"type": "Point", "coordinates": [26.13317198006276, 45.99942882908457]}}, {"type": "Feature", "properties": {"name": "Turceni", "county": "Gorj"}, "geometry": {"type": "Point", "coordinates": [23.378947182880996, 44.67356340247369]}}, {"type": "Feature", "properties": {"name": "Făget", "county": "Timiș"}, "geometry": {"type": "Point", "coordinates": [22.17572784510289, 45.85732826601569]}}, {"type": "Feature", "properties": {"name": "Pogoanele", "county": "Buzău"}, "geometry": {"type": "Point", "coordinates": [26.988162468066122, 44.917077378154545]}}, {"type": "Feature", "properties": {"name": "Mioveni", "county": "Argeș"}, "geometry": {"type": "Point", "coordinates": [24.94045857414121, 44.95874933547143]}}, {"type": "Feature", "properties": {"name": "Predeal", "county": "Brașov"}, "geometry": {"type": "Point", "coordinates": [25.579, 45.504]}}, {"type": "Feature", "properties": {"name": "Medgidia", "county": "Constanța"}, "geometry": {"type": "Point", "coordinates": [28.271115371744454, 44.247605430251355]}}, {"type": "Feature", "properties": {"name": "Pantelimon", "county": "Ilfov"}, "geometry": {"type": "Point", "coordinates": [26.20534597222175, 44.45205980645567]}}, {"type": "Feature", "properties": {"name": "Broșteni", "county": "Suceava"}, "geometry": {"type": "Point", "coordinates": [25.694, 47.226]}}, {"type": "Feature", "properties": {"name": "Ianca", "county": "Brăila"}, "geometry": {"type": "Point", "coordinates": [27.461, 45.14]}}, {"type": "Feature", "properties": {"name": "Șeini", "county": "Maramureș"}, "geometry": {"type": "Point", "coordinates": [23.284159484811745, 47.748767714907025]}}, {"type": "Feature", "properties": {"name": "Siret", "county": "Suceava"}, "geometry": {"type": "Point", "coordinates": [26.066176194236903, 47.950666627847]}}, {"type": "Feature", "properties": {"name": "Huedin", "county": "Cluj"}, "geometry": {"type": "Point", "coordinates": [23.024354620246193, 46.863424604215325]}}, {"type": "Feature", "properties": {"name": "Cehu Silvanei", "county": "Sălaj"}, "geometry": {"type": "Point", "coordinates": [23.179475340815095, 47.411207276717995]}}, {"type": "Feature", "properties": {"name": "Gura Humorului", "county": "Suceava"}, "geometry": {"type": "Point", "coordinates": [25.88849681220487, 47.55576139563612]}}, {"type": "Feature", "properties": {"name": "Rădăuți", "county": "Suceava"}, "geometry": {"type": "Point", "coordinates": [25.914097869096793, 47.85065951705388]}}, {"type": "Feature", "properties": {"name": "Vicovu de Sus", "county": "Suceava"}, "geometry": {"type": "Point", "coordinates": [25.659979558490143, 47.926547275153744]}}, {"type": "Feature", "properties": {"name": "Sovata", "county": "Mures"}, "geometry": {"type": "Point", "coordinates": [25.06900721258058, 46.597202905000366]}}, {"type": "Feature", "properties": {"name": "Negrești", "county": "Vaslui"}, "geometry": {"type": "Point", "coordinates": [27.45815770607089, 46.83369113342413]}}, {"type": "Feature", "properties": {"name": "Întorsura Buzăului", "county": "Covasna"}, "geometry": {"type": "Point", "coordinates": [26.032769525070716, 45.67396375079352]}}, {"type": "Feature", "properties": {"name": "Livada", "county": "Satu Mare"}, "geometry": {"type": "Point", "coordinates": [23.127, 47.859]}}, {"type": "Feature", "properties": {"name": "Amara", "county": "Ialomița"}, "geometry": {"type": "Point", "coordinates": [27.316094409875674, 44.620213918522786]}}, {"type": "Feature", "properties": {"name": "Aleșd", "county": "Bihor"}, "geometry": {"type": "Point", "coordinates": [22.39462373859992, 47.05966062729205]}}, {"type": "Feature", "properties": {"name": "Fieni", "county": "Dâmbovița"}, "geometry": {"type": "Point", "coordinates": [25.41767136560851, 45.12890354954212]}}, {"type": "Feature", "properties": {"name": "Bechet", "county": "Dolj"}, "geometry": {"type": "Point", "coordinates": [24.178074105095906, 44.394397940400204]}}, {"type": "Feature", "properties": {"name": "Aninoasa", "county": "Hunedoara"}, "geometry": {"type": "Point", "coordinates": [23.331, 45.393]}}, {"type": "Feature", "properties": {"name": "Ardud", "county": "Satu Mare"}, "geometry": {"type": "Point", "coordinates": [22.891437945981405, 47.64446170329495]}}, {"type": "Feature", "properties": {"name": "Azuga", "county": "Prahova"}, "geometry": {"type": "Point", "coordinates": [25.554624827884577, 45.44483306156642]}}, {"type": "Feature", "properties": {"name": "Balș", "county": "Olt"}, "geometry": {"type": "Point", "coordinates": [24.096234273731515, 44.35409860311899]}}, {"type": "Feature", "properties": {"name": "Băile Olănești", "county": "Vâlcea"}, "geometry": {"type": "Point", "coordinates": [24.24, 45.2]}}, {"type": "Feature", "properties": {"name": "Bălcești", "county": "Vâlcea"}, "geometry": {"type": "Point", "coordinates": [23.993, 44.498]}}, {"type": "Feature", "properties": {"name": "Mizil", "county": "Prahova"}, "geometry": {"type": "Point", "coordinates": [26.445216977722453, 45.00351456320216]}}, {"type": "Feature", "properties": {"name": "Moinești", "county": "Bacău"}, "geometry": {"type": "Point", "coordinates": [26.491232738338894, 46.47475265671072]}}, {"type": "Feature", "properties": {"name": "Solca", "county": "Suceava"}, "geometry": {"type": "Point", "coordinates": [25.833281202988754, 47.70053866666135]}}, {"type": "Feature", "properties": {"name": "Șimleu Silvanei", "county": "Sălaj"}, "geometry": {"type": "Point", "coordinates": [22.804252080969647, 47.230953121297816]}}, {"type": "Feature", "properties": {"name": "Slănic-Moldova", "county": "Bacău"}, "geometry": {"type": "Point", "coordinates": [26.457644774017943, 46.221452310273115]}}, {"type": "Feature", "properties": {"name": "Curtici", "county": "Arad"}, "geometry": {"type": "Point", "coordinates": [21.30890958429709, 46.34325438847362]}}, {"type": "Feature", "properties": {"name": "Cristuru Secuiesc", "county": "Harghita"}, "geometry": {"type": "Point", "coordinates": [25.032303315634014, 46.290391090472234]}}, {"type": "Feature", "properties": {"name": "Panciu", "county": "Vrancea"}, "geometry": {"type": "Point", "coordinates": [27.088471729266434, 45.90969896808033]}}, {"type": "Feature", "properties": {"name": "Plopeni", "county": "Prahova"}, "geometry": {"type": "Point", "coordinates": [26.027, 45.041]}}, {"type": "Feature", "properties": {"name": "Lipova", "county": "Arad"}, "geometry": {"type": "Point", "coordinates": [21.696, 46.091]}}, {"type": "Feature", "properties": {"name": "Jibou", "county": "Sălaj"}, "geometry": {"type": "Point", "coordinates": [23.256674263461072, 47.26254196841115]}}, {"type": "Feature", "properties": {"name": "Iernut", "county": "Mureș"}, "geometry": {"type": "Point", "coordinates": [24.23552252941465, 46.450331971218304]}}, {"type": "Feature", "properties": {"name": "Însurăței", "county": "Brăila"}, "geometry": {"type": "Point", "coordinates": [27.593, 45.001]}}, {"type": "Feature", "properties": {"name": "Ineu", "county": "Arad"}, "geometry": {"type": "Point", "coordinates": [21.836, 46.427]}}, {"type": "Feature", "properties": {"name": "Ciacova", "county": "Timiș"}, "geometry": {"type": "Point", "coordinates": [21.13094231217525, 45.511011524077986]}}, {"type": "Feature", "properties": {"name": "Târgu Bujor", "county": "Galați"}, "geometry": {"type": "Point", "coordinates": [27.917963910743634, 45.870756186736116]}}, {"type": "Feature", "properties": {"name": "Târgu Cărbunești", "county": "Gorj"}, "geometry": {"type": "Point", "coordinates": [23.513575326996214, 44.95662526586951]}}, {"type": "Feature", "properties": {"name": "Târgu Frumos", "county": "Iași"}, "geometry": {"type": "Point", "coordinates": [27.010389187649047, 47.207648556777514]}}, {"type": "Feature", "properties": {"name": "Buziaș", "county": "Timiș"}, "geometry": {"type": "Point", "coordinates": [21.603313756753895, 45.64865111237003]}}, {"type": "Feature", "properties": {"name": "Chișineu Criș", "county": "Arad"}, "geometry": {"type": "Point", "coordinates": [21.5113004475404, 46.5197855385296]}}, {"type": "Feature", "properties": {"name": "Boldești Scăeni", "county": "Prahova"}, "geometry": {"type": "Point", "coordinates": [26.0252132939849, 45.01612495215868]}}, {"type": "Feature", "properties": {"name": "Moreni", "county": "Dâmbovița"}, "geometry": {"type": "Point", "coordinates": [25.643, 44.978]}}, {"type": "Feature", "properties": {"name": "Borșa", "county": "Maramureș"}, "geometry": {"type": "Point", "coordinates": [24.66140628620996, 47.65488190083302]}}, {"type": "Feature", "properties": {"name": "Videle", "county": "Teleorman"}, "geometry": {"type": "Point", "coordinates": [25.529539445203447, 44.27454764581985]}}, {"type": "Feature", "properties": {"name": "Berbești", "county": "Vâlcea"}, "geometry": {"type": "Point", "coordinates": [23.831, 45.0]}}, {"type": "Feature", "properties": {"name": "Vlăhița", "county": "Harghita"}, "geometry": {"type": "Point", "coordinates": [25.528660785351796, 46.344994759780505]}}, {"type": "Feature", "properties": {"name": "Deta", "county": "Timiș"}, "geometry": {"type": "Point", "coordinates": [21.225325040899815, 45.395780194523944]}}, {"type": "Feature", "properties": {"name": "Lugoj", "county": "Timis"}, "geometry": {"type": "Point", "coordinates": [21.9057665744953, 45.685364072764436]}}, {"type": "Feature", "properties": {"name": "Mărășești", "county": "Vrancea"}, "geometry": {"type": "Point", "coordinates": [27.217374435453433, 45.875737468028106]}}, {"type": "Feature", "properties": {"name": "Năvodari", "county": "Constanța"}, "geometry": {"type": "Point", "coordinates": [28.62, 44.32]}}, {"type": "Feature", "properties": {"name": "Năsăud", "county": "Bistrița Năsăud"}, "geometry": {"type": "Point", "coordinates": [24.4033818004838, 47.28514318511429]}}, {"type": "Feature", "properties": {"name": "Tălmaciu", "county": "Sibiu"}, "geometry": {"type": "Point", "coordinates": [24.26308364904822, 45.66683749420969]}}, {"type": "Feature", "properties": {"name": "Agnita", "county": "Sibiu"}, "geometry": {"type": "Point", "coordinates": [24.61910955353845, 45.975982564706555]}}, {"type": "Feature", "properties": {"name": "Miercurea Sibiului", "county": "Sibiu"}, "geometry": {"type": "Point", "coordinates": [23.793313979532922, 45.88844677040672]}}, {"type": "Feature", "properties": {"name": "Bușteni", "county": "Prahova"}, "geometry": {"type": "Point", "coordinates": [25.537182569090003, 45.41766547948009]}}, {"type": "Feature", "properties": {"name": "Covasna", "county": "Covasna"}, "geometry": {"type": "Point", "coordinates": [26.188, 45.852]}}, {"type": "Feature", "properties": {"name": "Otopeni", "county": "Ilfov"}, "geometry": {"type": "Point", "coordinates": [26.072187976964393, 44.55064420184939]}}, {"type": "Feature", "properties": {"name": "Țicleni", "county": "Gorj"}, "geometry": {"type": "Point", "coordinates": [23.387669446241194, 44.88311956662827]}}, {"type": "Feature", "properties": {"name": "Techirghiol", "county": "Constanța"}, "geometry": {"type": "Point", "coordinates": [28.59392948051928, 44.0547026208147]}}, {"type": "Feature", "properties": {"name": "Tăuții Măgheruș", "county": "Maramureș"}, "geometry": {"type": "Point", "coordinates": [23.466264899736917, 47.66559477491844]}}, {"type": "Feature", "properties": {"name": "Pucioasa", "county": "Dâmbovița"}, "geometry": {"type": "Point", "coordinates": [25.431190070409233, 45.079146332648655]}}, {"type": "Feature", "properties": {"name": "Răcari", "county": "Dâmbovița"}, "geometry": {"type": "Point", "coordinates": [25.478, 44.573]}}, {"type": "Feature", "properties": {"name": "Urlați", "county": "Prahova"}, "geometry": {"type": "Point", "coordinates": [26.448, 44.996]}}, {"type": "Feature", "properties": {"name": "Beclean", "county": "Bistrița-Năsăud"}, "geometry": {"type": "Point", "coordinates": [24.182, 47.182]}}, {"type": "Feature", "properties": {"name": "Săliște", "county": "Sibiu"}, "geometry": {"type": "Point", "coordinates": [23.88376419783227, 45.79297142404574]}}, {"type": "Feature", "properties": {"name": "Sărmașu", "county": "Mureș"}, "geometry": {"type": "Point", "coordinates": [24.163135540090135, 46.752953676667225]}}, {"type": "Feature", "properties": {"name": "Breaza", "county": "Prahova"}, "geometry": {"type": "Point", "coordinates": [25.661, 45.186]}}, {"type": "Feature", "properties": {"name": "Târgu Neamț", "county": "Neamț"}, "geometry": {"type": "Point", "coordinates": [26.36039498002712, 47.2066269603782]}}, {"type": "Feature", "properties": {"name": "Bicaz", "county": "Neamț"}, "geometry": {"type": "Point", "coordinates": [26.089439349852697, 46.91259399996196]}}, {"type": "Feature", "properties": {"name": "Focșani", "county": "Vrancea"}, "geometry": {"type": "Point", "coordinates": [27.18279547561675, 45.69962290733899]}}, {"type": "Feature", "properties": {"name": "Zlatna", "county": "Alba"}, "geometry": {"type": "Point", "coordinates": [23.223179641443572, 46.11109394376056]}}, {"type": "Feature", "properties": {"name": "Ocnele Mari", "county": "Vâlcea"}, "geometry": {"type": "Point", "coordinates": [24.3, 45.05]}}, {"type": "Feature", "properties": {"name": "Vulcan", "county": "Hunedoara"}, "geometry": {"type": "Point", "coordinates": [23.269, 45.382]}}, {"type": "Feature", "properties": {"name": "Oravița", "county": "Caraș-Severin"}, "geometry": {"type": "Point", "coordinates": [21.696418529094487, 45.031189075502176]}}, {"type": "Feature", "properties": {"name": "Pâncota", "county": "Arad"}, "geometry": {"type": "Point", "coordinates": [21.690295360025747, 46.32884222203204]}}, {"type": "Feature", "properties": {"name": "Pecica", "county": "Arad"}, "geometry": {"type": "Point", "coordinates": [21.065315804190146, 46.16598900512446]}}, {"type": "Feature", "properties": {"name": "Roznov", "county": "Neamț"}, "geometry": {"type": "Point", "coordinates": [26.50990092228139, 46.83879663326534]}}, {"type": "Feature", "properties": {"name": "Rupea", "county": "Brașov"}, "geometry": {"type": "Point", "coordinates": [25.221755290841717, 46.03866681897037]}}, {"type": "Feature", "properties": {"name": "Reghin", "county": "Mureș"}, "geometry": {"type": "Point", "coordinates": [24.700356776372654, 46.779691292799626]}}, {"type": "Feature", "properties": {"name": "Târnăveni", "county": "Mureș"}, "geometry": {"type": "Point", "coordinates": [24.295046034622438, 46.33162738130162]}}, {"type": "Feature", "properties": {"name": "Cernavodă", "county": "Constanța"}, "geometry": {"type": "Point", "coordinates": [28.035473793794772, 44.34303865319524]}}, {"type": "Feature", "properties": {"name": "Buzău", "county": "Buzău"}, "geometry": {"type": "Point", "coordinates": [26.819849540699988, 45.15018505085524]}}, {"type": "Feature", "properties": {"name": "Sighișoara", "county": "Mureș"}, "geometry": {"type": "Point", "coordinates": [24.79123125901605, 46.22113235183876]}}, {"type": "Feature", "properties": {"name": "Slobozia", "county": "Ialomița"}, "geometry": {"type": "Point", "coordinates": [27.366, 44.564]}}, {"type": "Feature", "properties": {"name": "RoșioriI de Vede", "county": "Teleorman"}, "geometry": {"type": "Point", "coordinates": [24.985720515222226, 44.11336756123631]}}, {"type": "Feature", "properties": {"name": "Curtea de Argeș", "county": "Argeș"}, "geometry": {"type": "Point", "coordinates": [24.676584348137684, 45.14202694532403]}}, {"type": "Feature", "properties": {"name": "Dărmănești", "county": "Bacău"}, "geometry": {"type": "Point", "coordinates": [26.436, 46.363]}}, {"type": "Feature", "properties": {"name": "Ploiești", "county": "Prahova"}, "geometry": {"type": "Point", "coordinates": [26.01964553594866, 44.942526015643885]}}, {"type": "Feature", "properties": {"name": "Petrila", "county": "Hunedoara"}, "geometry": {"type": "Point", "coordinates": [23.388541026803292, 45.44937868868782]}}, {"type": "Feature", "properties": {"name": "Jimbolia", "county": "Timiș"}, "geometry": {"type": "Point", "coordinates": [20.71837600608162, 45.79190790004768]}}, {"type": "Feature", "properties": {"name": "Lupeni", "county": "Hunedoara"}, "geometry": {"type": "Point", "coordinates": [23.220067666663883, 45.35621763564024]}}, {"type": "Feature", "properties": {"name": "Ghimbav", "county": "Brașov"}, "geometry": {"type": "Point", "coordinates": [25.506822800140828, 45.66368478683344]}}, {"type": "Feature", "properties": {"name": "Giurgiu", "county": "Giurgiu"}, "geometry": {"type": "Point", "coordinates": [25.96460666502739, 43.89020096525875]}}, {"type": "Feature", "properties": {"name": "Zărnești", "county": "Brașov"}, "geometry": {"type": "Point", "coordinates": [25.339, 45.565]}}, {"type": "Feature", "properties": {"name": "Toplița", "county": "Harghita"}, "geometry": {"type": "Point", "coordinates": [25.3534, 46.926]}}, {"type": "Feature", "properties": {"name": "Tulcea", "county": "Tulcea"}, "geometry": {"type": "Point", "coordinates": [28.784939848356192, 45.179504405806895]}}, {"type": "Feature", "properties": {"name": "Brezoi", "county": "Vâlcea"}, "geometry": {"type": "Point", "coordinates": [24.239578530042927, 45.34427367033912]}}, {"type": "Feature", "properties": {"name": "Botoșani", "county": "Botoșani"}, "geometry": {"type": "Point", "coordinates": [26.669973612033242, 47.739615814535476]}}, {"type": "Feature", "properties": {"name": "Brăila", "county": "Brăila"}, "geometry": {"type": "Point", "coordinates": [27.97349907854479, 45.27164423200123]}}, {"type": "Feature", "properties": {"name": "Turnu Măgurele", "county": "Teleorman"}, "geometry": {"type": "Point", "coordinates": [24.86743628112542, 43.74613520187827]}}, {"type": "Feature", "properties": {"name": "Turda", "county": "Cluj"}, "geometry": {"type": "Point", "coordinates": [23.785, 46.567]}}, {"type": "Feature", "properties": {"name": "Urziceni", "county": "Ialomița"}, "geometry": {"type": "Point", "coordinates": [26.64187, 44.71842]}}, {"type": "Feature", "properties": {"name": "Râmnicu Sărat", "county": "Buzău"}, "geometry": {"type": "Point", "coordinates": [27.05011196254791, 45.38297990618396]}}, {"type": "Feature", "properties": {"name": "Podu Iloaiei", "county": "Iași"}, "geometry": {"type": "Point", "coordinates": [27.27477434552736, 47.21206452766478]}}, {"type": "Feature", "properties": {"name": "Zalău", "county": "Sălaj"}, "geometry": {"type": "Point", "coordinates": [23.055937769974715, 47.17901403771414]}}, {"type": "Feature", "properties": {"name": "Buhuși", "county": "Bacău"}, "geometry": {"type": "Point", "coordinates": [26.698146801239144, 46.72006018941404]}}, {"type": "Feature", "properties": {"name": "Sfântu Gheorghe", "county": "Covasna"}, "geometry": {"type": "Point", "coordinates": [25.787, 45.868]}}, {"type": "Feature", "properties": {"name": "Miercurea Ciuc", "county": "Harghita"}, "geometry": {"type": "Point", "coordinates": [25.805742791933106, 46.36304484329755]}}, {"type": "Feature", "properties": {"name": "Slatina", "county": "Olt"}, "geometry": {"type": "Point", "coordinates": [24.365, 44.43]}}, {"type": "Feature", "properties": {"name": "Voluntari", "county": "Ilfov"}, "geometry": {"type": "Point", "coordinates": [26.182888133795398, 44.48993711141152]}}, {"type": "Feature", "properties": {"name": "Huși", "county": "Vaslui"}, "geometry": {"type": "Point", "coordinates": [28.05798734581549, 46.6729712502739]}}, {"type": "Feature", "properties": {"name": "Avrig", "county": "Sibiu"}, "geometry": {"type": "Point", "coordinates": [24.378625354731135, 45.72527653074148]}}, {"type": "Feature", "properties": {"name": "Brad", "county": "Hunedoara"}, "geometry": {"type": "Point", "coordinates": [22.787587107874185, 46.12914934191631]}}, {"type": "Feature", "properties": {"name": "Călărași", "county": "Călărași"}, "geometry": {"type": "Point", "coordinates": [27.335025664743707, 44.19552057127134]}}, {"type": "Feature", "properties": {"name": "Câmpeni", "county": "Alba"}, "geometry": {"type": "Point", "coordinates": [23.043, 46.36]}}, {"type": "Feature", "properties": {"name": "Câmpia Turzii", "county": "Cluj"}, "geometry": {"type": "Point", "coordinates": [23.883135115582327, 46.54388115267328]}}, {"type": "Feature", "properties": {"name": "Câmpina", "county": "Prahova"}, "geometry": {"type": "Point", "coordinates": [25.733434949018086, 45.12590541656138]}}, {"type": "Feature", "properties": {"name": "Târgu Mureș", "county": "Mureș"}, "geometry": {"type": "Point", "coordinates": [24.55820574593825, 46.54022710425633]}}, {"type": "Feature", "properties": {"name": "Caransebeș", "county": "Caraș-Severin"}, "geometry": {"type": "Point", "coordinates": [22.216948709233776, 45.4116363054616]}}, {"type": "Feature", "properties": {"name": "Codlea", "county": "Brașov"}, "geometry": {"type": "Point", "coordinates": [25.446241716431235, 45.69916220154432]}}, {"type": "Feature", "properties": {"name": "Fetești", "county": "Ialomița"}, "geometry": {"type": "Point", "coordinates": [27.83, 44.381]}}, {"type": "Feature", "properties": {"name": "Drobeta Turnu Severin", "county": "Mehedinți"}, "geometry": {"type": "Point", "coordinates": [22.65849481272648, 44.63407992192654]}}, {"type": "Feature", "properties": {"name": "Beiuș", "county": "Bihor"}, "geometry": {"type": "Point", "coordinates": [22.349331358253316, 46.66768439357793]}}, {"type": "Feature", "properties": {"name": "Roman", "county": "Neamț"}, "geometry": {"type": "Point", "coordinates": [26.923, 46.924]}}, {"type": "Feature", "properties": {"name": "Râmnicu Vâlcea", "county": "Vâlcea"}, "geometry": {"type": "Point", "coordinates": [24.36954228709883, 45.105949943183695]}}, {"type": "Feature", "properties": {"name": "Craiova", "county": "Dolj"}, "geometry": {"type": "Point", "coordinates": [23.801745388709556, 44.31821890461356]}}, {"type": "Feature", "properties": {"name": "Oltenița", "county": "Călărași"}, "geometry": {"type": "Point", "coordinates": [26.64034438813486, 44.09174369420928]}}, {"type": "Feature", "properties": {"name": "Onești", "county": "Bacău"}, "geometry": {"type": "Point", "coordinates": [26.763, 46.25]}}, {"type": "Feature", "properties": {"name": "Sector 1", "county": "București"}, "geometry": {"type": "Point", "coordinates": [26.08, 44.47]}}, {"type": "Feature", "properties": {"name": "Sector 2", "county": "București"}, "geometry": {"type": "Point", "coordinates": [26.15, 44.45]}}, {"type": "Feature", "properties": {"name": "Sinaia", "county": "Prahova"}, "geometry": {"type": "Point", "coordinates": [25.54784212167393, 45.34813600548702]}}, {"type": "Feature", "properties": {"name": "Adjud", "county": "Vrancea"}, "geometry": {"type": "Point", "coordinates": [27.180428876740653, 46.10058736964367]}}, {"type": "Feature", "properties": {"name": "Galați", "county": "Galați"}, "geometry": {"type": "Point", "coordinates": [28.046, 45.435]}}, {"type": "Feature", "properties": {"name": "Cluj Napoca", "county": "Cluj"}, "geometry": {"type": "Point", "coordinates": [23.603524087070944, 46.77762476498473]}}, {"type": "Feature", "properties": {"name": "Târgoviște", "county": "Dâmbovița"}, "geometry": {"type": "Point", "coordinates": [25.46, 44.925]}}, {"type": "Feature", "properties": {"name": "Târgu Jiu", "county": "Gorj"}, "geometry": {"type": "Point", "coordinates": [23.274063243190525, 45.03574609880559]}}, {"type": "Feature", "properties": {"name": "Brașov", "county": "Brașov"}, "geometry": {"type": "Point", "coordinates": [25.5995918907972, 45.65142689602862]}}, {"type": "Feature", "properties": {"name": "Mediaș", "county": "Sibiu"}, "geometry": {"type": "Point", "coordinates": [24.356774268558414, 46.16176162911564]}}, {"type": "Feature", "properties": {"name": "Hunedoara", "county": "Hunedoara"}, "geometry": {"type": "Point", "coordinates": [22.9007994858467, 45.75222606014766]}}, {"type": "Feature", "properties": {"name": "Hațeg", "county": "Hunedoara"}, "geometry": {"type": "Point", "coordinates": [22.946969572061967, 45.60944722471514]}}, {"type": "Feature", "properties": {"name": "Horezu", "county": "Vâlcea"}, "geometry": {"type": "Point", "coordinates": [23.99430168825503, 45.14512777609145]}}, {"type": "Feature", "properties": {"name": "Dej", "county": "Cluj"}, "geometry": {"type": "Point", "coordinates": [23.875335770338634, 47.141734908085795]}}, {"type": "Feature", "properties": {"name": "Timișoara", "county": "Timișoara"}, "geometry": {"type": "Point", "coordinates": [21.22815347099589, 45.7560662056551]}}, {"type": "Feature", "properties": {"name": "Aiud", "county": "Alba"}, "geometry": {"type": "Point", "coordinates": [23.716639392014034, 46.31000827537503]}}, {"type": "Feature", "properties": {"name": "Alba Iulia", "county": "Alba"}, "geometry": {"type": "Point", "coordinates": [23.572097991576843, 46.06917455387862]}}, {"type": "Feature", "properties": {"name": "Oradea", "county": "Bihor"}, "geometry": {"type": "Point", "coordinates": [21.934708811619085, 47.05321687650709]}}, {"type": "Feature", "properties": {"name": "Piatra Neamț", "county": "Neamț"}, "geometry": {"type": "Point", "coordinates": [26.368496857133916, 46.93400444364664]}}, {"type": "Feature", "properties": {"name": "Petroșani", "county": "Hunedoara"}, "geometry": {"type": "Point", "coordinates": [23.366917936274298, 45.418935904683906]}}, {"type": "Feature", "properties": {"name": "Pitești", "county": "Argeș"}, "geometry": {"type": "Point", "coordinates": [24.874815406942904, 44.85824771782254]}}, {"type": "Feature", "properties": {"name": "Titu", "county": "Dâmbovița"}, "geometry": {"type": "Point", "coordinates": [25.5702542300342, 44.660931156417156]}}, {"type": "Feature", "properties": {"name": "Bacău", "county": "Bacău"}, "geometry": {"type": "Point", "coordinates": [26.909790326555427, 46.56626878545086]}}, {"type": "Feature", "properties": {"name": "Sighetu Marmației", "county": "Maramureș"}, "geometry": {"type": "Point", "coordinates": [23.893757727604555, 47.928624872346575]}}, {"type": "Feature", "properties": {"name": "Satu Mare", "county": "Satu Mare"}, "geometry": {"type": "Point", "coordinates": [22.887, 47.792]}}, {"type": "Feature", "properties": {"name": "Pașcani", "county": "Iași"}, "geometry": {"type": "Point", "coordinates": [26.722022454721994, 47.253165536612364]}}, {"type": "Feature", "properties": {"name": "Suceava", "county": "Suceava"}, "geometry": {"type": "Point", "coordinates": [26.279497345614253, 47.67434058391034]}}, {"type": "Feature", "properties": {"name": "Arad", "county": "Arad"}, "geometry": {"type": "Point", "coordinates": [21.311184608880577, 46.18879668870124]}}, {"type": "Feature", "properties": {"name": "Baia Mare", "county": "Baia Mare"}, "geometry": {"type": "Point", "coordinates": [23.58158706942458, 47.65551806203168]}}, {"type": "Feature", "properties": {"name": "Fălticeni", "county": "Suceava"}, "geometry": {"type": "Point", "coordinates": [26.296839923221746, 47.46068478018775]}}, {"type": "Feature", "properties": {"name": "Alexandria", "county": "Teleorman"}, "geometry": {"type": "Point", "coordinates": [25.331228267202405, 43.9693562488136]}}, {"type": "Feature", "properties": {"name": "Constanța", "county": "Constanța"}, "geometry": {"type": "Point", "coordinates": [28.626364858298228, 44.17536708786978]}}, {"type": "Feature", "properties": {"name": "Găești", "county": "Dâmbovița"}, "geometry": {"type": "Point", "coordinates": [25.316624303203486, 44.71803294634413]}}, {"type": "Feature", "properties": {"name": "Gherla", "county": "Cluj"}, "geometry": {"type": "Point", "coordinates": [23.909934779232323, 47.030387319937006]}}, {"type": "Feature", "properties": {"name": "Vaslui", "county": "Vaslui"}, "geometry": {"type": "Point", "coordinates": [27.72900568879182, 46.64092567626783]}}, {"type": "Feature", "properties": {"name": "Vatra Dornei", "county": "Suceava"}, "geometry": {"type": "Point", "coordinates": [25.352354131241654, 47.34737929060605]}}, {"type": "Feature", "properties": {"name": "Câmpulung Moldovenesc", "county": "Suceava"}, "geometry": {"type": "Point", "coordinates": [25.55815306248608, 47.52956504762524]}}, {"type": "Feature", "properties": {"name": "Zimnicea", "county": "Teleorman"}, "geometry": {"type": "Point", "coordinates": [25.3645450167301, 43.656286951837]}}, {"type": "Feature", "properties": {"name": "Cisnădie", "county": "Sibiu"}, "geometry": {"type": "Point", "coordinates": [24.15123928568552, 45.713703320116444]}}, {"type": "Feature", "properties": {"name": "Costești", "county": "Argeș"}, "geometry": {"type": "Point", "coordinates": [24.878, 44.668]}}, {"type": "Feature", "properties": {"name": "Reșița", "county": "Caraș-Severin"}, "geometry": {"type": "Point", "coordinates": [21.901267284685265, 45.29452300224425]}}, {"type": "Feature", "properties": {"name": "Odorheiu Secuiesc", "county": "Harghita"}, "geometry": {"type": "Point", "coordinates": [25.293946157323855, 46.30618924690689]}}, {"type": "Feature", "properties": {"name": "Tecuci", "county": "Galați"}, "geometry": {"type": "Point", "coordinates": [27.426, 45.848]}}, {"type": "Feature", "properties": {"name": "Isaccea", "county": "Tulcea"}, "geometry": {"type": "Point", "coordinates": [28.4581569224136, 45.267429081938886]}}, {"type": "Feature", "properties": {"name": "Simeria", "county": "Hunedoara"}, "geometry": {"type": "Point", "coordinates": [23.015105935027826, 45.84797175457368]}}, {"type": "Feature", "properties": {"name": "Cugir", "county": "Alba"}, "geometry": {"type": "Point", "coordinates": [23.372528443622155, 45.83598058661979]}}, {"type": "Feature", "properties": {"name": "Orăstie", "county": "Hunedoara"}, "geometry": {"type": "Point", "coordinates": [23.197280273237347, 45.83809807432085]}}, {"type": "Feature", "properties": {"name": "Orșova", "county": "Mehedinți"}, "geometry": {"type": "Point", "coordinates": [22.396, 44.723]}}, {"type": "Feature", "properties": {"name": "Ovidiu", "county": "Constanța"}, "geometry": {"type": "Point", "coordinates": [28.56303011378619, 44.25391055107275]}}, {"type": "Feature", "properties": {"name": "Calafat", "county": "Dolj"}, "geometry": {"type": "Point", "coordinates": [22.93363842694129, 43.99006535131771]}}, {"type": "Feature", "properties": {"name": "Motru", "county": "Gorj"}, "geometry": {"type": "Point", "coordinates": [22.97259999801086, 44.80278055212318]}}, {"type": "Feature", "properties": {"name": "Luduș", "county": "Mureș"}, "geometry": {"type": "Point", "coordinates": [24.09558916188735, 46.48157401789118]}}, {"type": "Feature", "properties": {"name": "Deva", "county": "Hunedoara"}, "geometry": {"type": "Point", "coordinates": [22.903280586263275, 45.879247466096466]}}, {"type": "Feature", "properties": {"name": "Măgurele", "county": "Ilfov"}, "geometry": {"type": "Point", "coordinates": [26.02857809678432, 44.34810552977964]}}, {"type": "Feature", "properties": {"name": "Iași", "county": "Iași"}, "geometry": {"type": "Point", "coordinates": [27.58294948490481, 47.16161596174708]}}, {"type": "Feature", "properties": {"name": "Teiuș", "county": "Alba"}, "geometry": {"type": "Point", "coordinates": [23.685, 46.218]}}, {"type": "Feature", "properties": {"name": "Flămânzi", "county": "Botoșani"}, "geometry": {"type": "Point", "coordinates": [26.87549991230827, 47.553488295293015]}}, {"type": "Feature", "properties": {"name": "Dăbuleni", "county": "Dolj"}, "geometry": {"type": "Point", "coordinates": [24.089554198272577, 43.80159355572686]}}, {"type": "Feature", "properties": {"name": "Gheorgheni", "county": "Harghita"}, "geometry": {"type": "Point", "coordinates": [25.60400570039405, 46.72141772354871]}}, {"type": "Feature", "properties": {"name": "Târgu Ocna", "county": "Bacău"}, "geometry": {"type": "Point", "coordinates": [26.60972734011517, 46.2799556657372]}}, {"type": "Feature", "properties": {"name": "Liteni", "county": "Suceava"}, "geometry": {"type": "Point", "coordinates": [26.180223061820975, 47.57067739395579]}}, {"type": "Feature", "properties": {"name": "Hârșova", "county": "Constanța"}, "geometry": {"type": "Point", "coordinates": [27.948122856491963, 44.68674208377344]}}, {"type": "Feature", "properties": {"name": "Nehoiu", "county": "Buzău"}, "geometry": {"type": "Point", "coordinates": [26.301176146734086, 45.41912802427125]}}, {"type": "Feature", "properties": {"name": "Odobești", "county": "Vrancea"}, "geometry": {"type": "Point", "coordinates": [27.066144212131878, 45.759755286439436]}}, {"type": "Feature", "properties": {"name": "Chitila", "county": "Ilfov"}, "geometry": {"type": "Point", "coordinates": [25.98219168858071, 44.50835310362653]}}, {"type": "Feature", "properties": {"name": "Babadag", "county": "Tulcea"}, "geometry": {"type": "Point", "coordinates": [28.717101698287816, 44.89066783405324]}}, {"type": "Feature", "properties": {"name": "Mangalia", "county": "Constanța"}, "geometry": {"type": "Point", "coordinates": [28.57867859583788, 43.81739284586057]}}, {"type": "Feature", "properties": {"name": "București", "county": "București"}, "geometry": {"type": "Point", "coordinates": [26.102386986503824, 44.43558180842658]}}, {"type": "Feature", "properties": {"name": "Bistrița", "county": "Bistrița-Năsăud"}, "geometry": {"type": "Point", "coordinates": [24.5, 47.133]}}, {"type": "Feature", "properties": {"name": "Eforie", "county": "Constanța"}, "geometry": {"type": "Point", "coordinates": [28.630654381527997, 44.06503634088488]}}, {"type": "Feature", "properties": {"name": "Cavnic", "county": "Maramureș"}, "geometry": {"type": "Point", "coordinates": [23.823849728568007, 47.64962244351497]}}, {"type": "Feature", "properties": {"name": "Abrud", "county": "Alba"}, "geometry": {"type": "Point", "coordinates": [23.065, 46.274]}}, {"type": "Feature", "properties": {"name": "Ocna Mureș", "county": "Alba"}, "geometry": {"type": "Point", "coordinates": [23.84413176649881, 46.38624444619798]}}, {"type": "Feature", "properties": {"name": "Băbeni", "county": "Vâlcea"}, "geometry": {"type": "Point", "coordinates": [24.23594931594665, 44.97047752232734]}}, {"type": "Feature", "properties": {"name": "Câmpulung", "county": "Argeș"}, "geometry": {"type": "Point", "coordinates": [25.049646570512543, 45.27729492910459]}}, {"type": "Feature", "properties": {"name": "Caracal", "county": "Olt"}, "geometry": {"type": "Point", "coordinates": [24.349377260841855, 44.11241096180483]}}, {"type": "Feature", "properties": {"name": "Copșa Mică", "county": "Sibiu"}, "geometry": {"type": "Point", "coordinates": [24.253603187765577, 46.11622143244339]}}, {"type": "Feature", "properties": {"name": "Corabia", "county": "Olt"}, "geometry": {"type": "Point", "coordinates": [24.50258691486661, 43.77629105191632]}}, {"type": "Feature", "properties": {"name": "Darabani", "county": "Botoșani"}, "geometry": {"type": "Point", "coordinates": [26.586, 48.187]}}, {"type": "Feature", "properties": {"name": "Bocșa", "county": "Caraș-Severin"}, "geometry": {"type": "Point", "coordinates": [21.713, 45.376]}}, {"type": "Feature", "properties": {"name": "Bragadiru", "county": "Ilfov"}, "geometry": {"type": "Point", "coordinates": [25.977216910944296, 44.36968631261836]}}, {"type": "Feature", "properties": {"name": "Slănic", "county": "Prahova"}, "geometry": {"type": "Point", "coordinates": [25.941610919451414, 45.23815621748395]}}, {"type": "Feature", "properties": {"name": "Salcea", "county": "Suceava"}, "geometry": {"type": "Point", "coordinates": [26.372144183399236, 47.651884589868004]}}, {"type": "Feature", "properties": {"name": "Sângeorz-Băi", "county": "Bistrița-Năsăud"}, "geometry": {"type": "Point", "coordinates": [24.670519272502496, 47.36823478291897]}}, {"type": "Feature", "properties": {"name": "Sânnicolau Mare", "county": "Timiș"}, "geometry": {"type": "Point", "coordinates": [20.621207251536262, 46.072579849733884]}}, {"type": "Feature", "properties": {"name": "Popești-Leordeni", "county": "Ilfov"}, "geometry": {"type": "Point", "coordinates": [26.16984406553149, 44.379756898161446]}}, {"type": "Feature", "properties": {"name": "Bârlad", "county": "Vaslui"}, "geometry": {"type": "Point", "coordinates": [27.669170589624805, 46.22555185904364]}}, {"type": "Feature", "properties": {"name": "Blaj", "county": "Alba"}, "geometry": {"type": "Point", "coordinates": [23.916, 46.175]}}, {"type": "Feature", "properties": {"name": "Sibiu", "county": "Sibiu"}, "geometry": {"type": "Point", "coordinates": [24.150576434083945, 45.79284094011186]}}, {"type": "Feature", "properties": {"name": "Șomcuta Mare", "county": "Maramureș"}, "geometry": {"type": "Point", "coordinates": [23.47082950671727, 47.49788451169616]}}, {"type": "Feature", "properties": {"name": "Strehaia", "county": "Mehedinți"}, "geometry": {"type": "Point", "coordinates": [23.19056765748068, 44.6217797749362]}}, {"type": "Feature", "properties": {"name": "Sector 3", "county": "București"}, "geometry": {"type": "Point", "coordinates": [26.17, 44.41]}}, {"type": "Feature", "properties": {"name": "Sector 4", "county": "București"}, "geometry": {"type": "Point", "coordinates": [26.1, 44.38]}}, {"type": "Feature", "properties": {"name": "Sector 5", "county": "București"}, "geometry": {"type": "Point", "coordinates": [26.05, 44.41]}}, {"type": "Feature", "properties": {"name": "Sector 6", "county": "București"}, "geometry": {"type": "Point", "coordinates": [25.98, 44.44]}}, {"type": "Feature", "properties": {"name": "Ulmeni", "county": "Maramureș"}, "geometry": {"type": "Point", "coordinates": [23.3, 47.467]}}, {"type": "Feature", "properties": {"name": "Tismana", "county": "Gorj"}, "geometry": {"type": "Point", "coordinates": [22.9667, 45.05]}}, {"type": "Feature", "properties": {"name": "Oțelu Roșu", "county": "Caraș-Severin"}, "geometry": {"type": "Point", "coordinates": [22.356626530386617, 45.51804789043118]}}, {"type": "Feature", "properties": {"name": "Buftea", "county": "Ilfov"}, "geometry": {"type": "Point", "coordinates": [25.9468581444126, 44.55946133077178]}}, {"type": "Feature", "properties": {"name": "Ștefănești", "county": "Botoșani"}, "geometry": {"type": "Point", "coordinates": [26.72, 47.79]}}]}